[
  {
    "city": "Abia",
    "name": "Abia Central Shelter",
    "address": "Main Hall, Umuahia City Center",
    "latitude": 5.5320,
    "longitude": 7.4967,
    "routeDescription": "Accessible via main road of Abia."
  },
  {
    "city": "Abia",
    "name": "Abia Stadium Shelter",
    "address": "Stadium Rd, Umuahia",
    "latitude": 5.5420,
    "longitude": 7.5067,
    "routeDescription": "Located near stadium area of Abia."
  },
  {
    "city": "Adamawa",
    "name": "Adamawa Central Shelter",
    "address": "Main Hall, Yola City Center",
    "latitude": 9.3260,
    "longitude": 12.4917,
    "routeDescription": "Accessible via main road of Adamawa."
  },
  {
    "city": "Adamawa",
    "name": "Adamawa Stadium Shelter",
    "address": "Stadium Rd, Yola",
    "latitude": 9.3360,
    "longitude": 12.5017,
    "routeDescription": "Located near stadium area of Adamawa."
  },
  {
    "city": "Akwa Ibom",
    "name": "Akwa Ibom Central Shelter",
    "address": "Main Hall, Uyo City Center",
    "latitude": 4.9650,
    "longitude": 7.9080,
    "routeDescription": "Accessible via main road of Akwa Ibom."
  },
  {
    "city": "Akwa Ibom",
    "name": "Akwa Ibom Stadium Shelter",
    "address": "Stadium Rd, Uyo",
    "latitude": 4.9750,
    "longitude": 7.9180,
    "routeDescription": "Located near stadium area of Akwa Ibom."
  },
  {
    "city": "Anambra",
    "name": "Anambra Central Shelter",
    "address": "Main Hall, Awka City Center",
    "latitude": 6.1637,
    "longitude": 6.9232,
    "routeDescription": "Accessible via main road of Anambra."
  },
  {
    "city": "Anambra",
    "name": "Anambra Stadium Shelter",
    "address": "Stadium Rd, Awka",
    "latitude": 6.1737,
    "longitude": 6.9332,
    "routeDescription": "Located near stadium area of Anambra."
  },
  {
    "city": "Bauchi",
    "name": "Bauchi Central Shelter",
    "address": "Main Hall, Bauchi City Center",
    "latitude": 10.2964,
    "longitude": 9.8270,
    "routeDescription": "Accessible via main road of Bauchi."
  },
  {
    "city": "Bauchi",
    "name": "Bauchi Stadium Shelter",
    "address": "Stadium Rd, Bauchi",
    "latitude": 10.3064,
    "longitude": 9.8370,
    "routeDescription": "Located near stadium area of Bauchi."
  },
  {
    "city": "Bayelsa",
    "name": "Bayelsa Central Shelter",
    "address": "Main Hall, Yenagoa City Center",
    "latitude": 4.5406,
    "longitude": 6.0760,
    "routeDescription": "Accessible via main road of Bayelsa."
  },
  {
    "city": "Bayelsa",
    "name": "Bayelsa Stadium Shelter",
    "address": "Stadium Rd, Yenagoa",
    "latitude": 4.5506,
    "longitude": 6.0860,
    "routeDescription": "Located near stadium area of Bayelsa."
  },
  {
    "city": "Benue",
    "name": "Benue Central Shelter",
    "address": "Main Hall, Makurdi City Center",
    "latitude": 7.7233,
    "longitude": 8.5258,
    "routeDescription": "Accessible via main road of Benue."
  },
  {
    "city": "Benue",
    "name": "Benue Stadium Shelter",
    "address": "Stadium Rd, Makurdi",
    "latitude": 7.7333,
    "longitude": 8.5358,
    "routeDescription": "Located near stadium area of Benue."
  },
  {
    "city": "Borno",
    "name": "Borno Central Shelter",
    "address": "Main Hall, Maiduguri City Center",
    "latitude": 11.8398,
    "longitude": 13.1590,
    "routeDescription": "Accessible via main road of Borno."
  },
  {
    "city": "Borno",
    "name": "Borno Stadium Shelter",
    "address": "Stadium Rd, Maiduguri",
    "latitude": 11.8498,
    "longitude": 13.1690,
    "routeDescription": "Located near stadium area of Borno."
  },
  {
    "city": "Cross River",
    "name": "Cross River Central Shelter",
    "address": "Main Hall, Calabar City Center",
    "latitude": 5.9960,
    "longitude": 8.4790,
    "routeDescription": "Accessible via main road of Cross River."
  },
  {
    "city": "Cross River",
    "name": "Cross River Stadium Shelter",
    "address": "Stadium Rd, Calabar",
    "latitude": 6.0060,
    "longitude": 8.4890,
    "routeDescription": "Located near stadium area of Cross River."
  },
  {
    "city": "Delta",
    "name": "Delta Central Shelter",
    "address": "Main Hall, Asaba City Center",
    "latitude": 5.5480,
    "longitude": 5.7370,
    "routeDescription": "Accessible via main road of Delta."
  },
  {
    "city": "Delta",
    "name": "Delta Stadium Shelter",
    "address": "Stadium Rd, Asaba",
    "latitude": 5.5580,
    "longitude": 5.7470,
    "routeDescription": "Located near stadium area of Delta."
  },
  {
    "city": "Ebonyi",
    "name": "Ebonyi Central Shelter",
    "address": "Main Hall, Abakaliki City Center",
    "latitude": 6.2667,
    "longitude": 8.0833,
    "routeDescription": "Accessible via main road of Ebonyi."
  },
  {
    "city": "Ebonyi",
    "name": "Ebonyi Stadium Shelter",
    "address": "Stadium Rd, Abakaliki",
    "latitude": 6.2767,
    "longitude": 8.0933,
    "routeDescription": "Located near stadium area of Ebonyi."
  },
  {
    "city": "Edo",
    "name": "Edo Central Shelter",
    "address": "Main Hall, Benin City Center",
    "latitude": 6.3350,
    "longitude": 5.6220,
    "routeDescription": "Accessible via main road of Edo."
  },
  {
    "city": "Edo",
    "name": "Edo Stadium Shelter",
    "address": "Stadium Rd, Benin City",
    "latitude": 6.3450,
    "longitude": 5.6320,
    "routeDescription": "Located near stadium area of Edo."
  },
  {
    "city": "Ekiti",
    "name": "Ekiti Central Shelter",
    "address": "Main Hall, Ado-Ekiti City Center",
    "latitude": 7.6300,
    "longitude": 5.2200,
    "routeDescription": "Accessible via main road of Ekiti."
  },
  {
    "city": "Ekiti",
    "name": "Ekiti Stadium Shelter",
    "address": "Stadium Rd, Ado-Ekiti",
    "latitude": 7.6400,
    "longitude": 5.2300,
    "routeDescription": "Located near stadium area of Ekiti."
  },
  {
    "city": "Enugu",
    "name": "Enugu Central Shelter",
    "address": "Main Hall, Enugu City Center",
    "latitude": 6.4400,
    "longitude": 7.5000,
    "routeDescription": "Accessible via main road of Enugu."
  },
  {
    "city": "Enugu",
    "name": "Enugu Stadium Shelter",
    "address": "Stadium Rd, Enugu",
    "latitude": 6.4500,
    "longitude": 7.5100,
    "routeDescription": "Located near stadium area of Enugu."
  },
  {
    "city": "Gombe",
    "name": "Gombe Central Shelter",
    "address": "Main Hall, Gombe City Center",
    "latitude": 10.2890,
    "longitude": 11.1730,
    "routeDescription": "Accessible via main road of Gombe."
  },
  {
    "city": "Gombe",
    "name": "Gombe Stadium Shelter",
    "address": "Stadium Rd, Gombe",
    "latitude": 10.2990,
    "longitude": 11.1830,
    "routeDescription": "Located near stadium area of Gombe."
  },
  {
    "city": "Imo",
    "name": "Imo Central Shelter",
    "address": "Main Hall, Owerri City Center",
    "latitude": 5.4870,
    "longitude": 7.0280,
    "routeDescription": "Accessible via main road of Imo."
  },
  {
    "city": "Imo",
    "name": "Imo Stadium Shelter",
    "address": "Stadium Rd, Owerri",
    "latitude": 5.4970,
    "longitude": 7.0380,
    "routeDescription": "Located near stadium area of Imo."
  },
  {
    "city": "Jigawa",
    "name": "Jigawa Central Shelter",
    "address": "Main Hall, Dutse City Center",
    "latitude": 12.3645,
    "longitude": 9.6625,
    "routeDescription": "Accessible via main road of Jigawa."
  },
  {
    "city": "Jigawa",
    "name": "Jigawa Stadium Shelter",
    "address": "Stadium Rd, Dutse",
    "latitude": 12.3745,
    "longitude": 9.6725,
    "routeDescription": "Located near stadium area of Jigawa."
  },
  {
    "city": "Kaduna",
    "name": "Kaduna Central Shelter",
    "address": "Main Hall, Kaduna City Center",
    "latitude": 10.5200,
    "longitude": 7.4300,
    "routeDescription": "Accessible via main road of Kaduna."
  },
  {
    "city": "Kaduna",
    "name": "Kaduna Stadium Shelter",
    "address": "Stadium Rd, Kaduna",
    "latitude": 10.5300,
    "longitude": 7.4400,
    "routeDescription": "Located near stadium area of Kaduna."
  },
  {
    "city": "Kano",
    "name": "Kano Central Shelter",
    "address": "Main Hall, Kano City Center",
    "latitude": 12.0022,
    "longitude": 8.5919,
    "routeDescription": "Accessible via main road of Kano."
  },
  {
    "city": "Kano",
    "name": "Kano Stadium Shelter",
    "address": "Stadium Rd, Kano",
    "latitude": 12.0122,
    "longitude": 8.6019,
    "routeDescription": "Located near stadium area of Kano."
  },
  {
    "city": "Katsina",
    "name": "Katsina Central Shelter",
    "address": "Main Hall, Katsina City Center",
    "latitude": 12.9870,
    "longitude": 7.6200,
    "routeDescription": "Accessible via main road of Katsina."
  },
  {
    "city": "Katsina",
    "name": "Katsina Stadium Shelter",
    "address": "Stadium Rd, Katsina",
    "latitude": 12.9970,
    "longitude": 7.6300,
    "routeDescription": "Located near stadium area of Katsina."
  },
  {
    "city": "Kebbi",
    "name": "Kebbi Central Shelter",
    "address": "Main Hall, Birnin Kebbi City Center",
    "latitude": 12.4534,
    "longitude": 4.2022,
    "routeDescription": "Accessible via main road of Kebbi."
  },
  {
    "city": "Kebbi",
    "name": "Kebbi Stadium Shelter",
    "address": "Stadium Rd, Birnin Kebbi",
    "latitude": 12.4634,
    "longitude": 4.2122,
    "routeDescription": "Located near stadium area of Kebbi."
  },
  {
    "city": "Kogi",
    "name": "Kogi Central Shelter",
    "address": "Main Hall, Lokoja City Center",
    "latitude": 7.5800,
    "longitude": 6.7300,
    "routeDescription": "Accessible via main road of Kogi."
  },
  {
    "city": "Kogi",
    "name": "Kogi Stadium Shelter",
    "address": "Stadium Rd, Lokoja",
    "latitude": 7.5900,
    "longitude": 6.7400,
    "routeDescription": "Located near stadium area of Kogi."
  },
  {
    "city": "Kwara",
    "name": "Kwara Central Shelter",
    "address": "Main Hall, Ilorin City Center",
    "latitude": 8.4870,
    "longitude": 4.5419,
    "routeDescription": "Accessible via main road of Kwara."
  },
  {
    "city": "Kwara",
    "name": "Kwara Stadium Shelter",
    "address": "Stadium Rd, Ilorin",
    "latitude": 8.4970,
    "longitude": 4.5519,
    "routeDescription": "Located near stadium area of Kwara."
  },
  {
    "city": "Lagos",
    "name": "Lagos Central Shelter",
    "address": "Main Hall, Lagos Island",
    "latitude": 6.5244,
    "longitude": 3.3792,
    "routeDescription": "Accessible via main road of Lagos."
  },
  {
    "city": "Lagos",
    "name": "Lagos Stadium Shelter",
    "address": "Stadium Rd, Surulere",
    "latitude": 6.5344,
    "longitude": 3.3892,
    "routeDescription": "Located near stadium area of Lagos."
  },
  {
    "city": "Nasarawa",
    "name": "Nasarawa Central Shelter",
    "address": "Main Hall, Lafia City Center",
    "latitude": 8.5320,
    "longitude": 7.7100,
    "routeDescription": "Accessible via main road of Nasarawa."
  },
  {
    "city": "Nasarawa",
    "name": "Nasarawa Stadium Shelter",
    "address": "Stadium Rd, Lafia",
    "latitude": 8.5420,
    "longitude": 7.7200,
    "routeDescription": "Located near stadium area of Nasarawa."
  },
  {
    "city": "Niger",
    "name": "Niger Central Shelter",
    "address": "Main Hall, Minna City Center",
    "latitude": 9.9300,
    "longitude": 6.2700,
    "routeDescription": "Accessible via main road of Niger."
  },
  {
    "city": "Niger",
    "name": "Niger Stadium Shelter",
    "address": "Stadium Rd, Minna",
    "latitude": 9.9400,
    "longitude": 6.2800,
    "routeDescription": "Located near stadium area of Niger."
  },
  {
    "city": "Ogun",
    "name": "Ogun Central Shelter",
    "address": "Main Hall, Abeokuta City Center",
    "latitude": 7.1500,
    "longitude": 3.3500,
    "routeDescription": "Accessible via main road of Ogun."
  },
  {
    "city": "Ogun",
    "name": "Ogun Stadium Shelter",
    "address": "Stadium Rd, Abeokuta",
    "latitude": 7.1600,
    "longitude": 3.3600,
    "routeDescription": "Located near stadium area of Ogun."
  },
  {
    "city": "Ondo",
    "name": "Ondo Central Shelter",
    "address": "Main Hall, Akure City Center",
    "latitude": 7.2500,
    "longitude": 5.2000,
    "routeDescription": "Accessible via main road of Ondo."
  },
  {
    "city": "Ondo",
    "name": "Ondo Stadium Shelter",
    "address": "Stadium Rd, Akure",
    "latitude": 7.2600,
    "longitude": 5.2100,
    "routeDescription": "Located near stadium area of Ondo."
  },
  {
    "city": "Osun",
    "name": "Osun Central Shelter",
    "address": "Main Hall, Osogbo City Center",
    "latitude": 7.6333,
    "longitude": 4.1833,
    "routeDescription": "Accessible via main road of Osun."
  },
  {
    "city": "Osun",
    "name": "Osun Stadium Shelter",
    "address": "Stadium Rd, Osogbo",
    "latitude": 7.6433,
    "longitude": 4.1933,
    "routeDescription": "Located near stadium area of Osun."
  },
  {
    "city": "Oyo",
    "name": "Oyo Central Shelter",
    "address": "Main Hall, Ibadan City Center",
    "latitude": 7.3775,
    "longitude": 3.9475,
    "routeDescription": "Accessible via main road of Oyo."
  },
  {
    "city": "Oyo",
    "name": "Oyo Stadium Shelter",
    "address": "Stadium Rd, Ibadan",
    "latitude": 7.3875,
    "longitude": 3.9575,
    "routeDescription": "Located near stadium area of Oyo."
  },
  {
    "city": "Plateau",
    "name": "Plateau Central Shelter",
    "address": "Main Hall, Jos City Center",
    "latitude": 9.9300,
    "longitude": 8.8900,
    "routeDescription": "Accessible via main road of Plateau."
  },
  {
    "city": "Plateau",
    "name": "Plateau Stadium Shelter",
    "address": "Stadium Rd, Jos",
    "latitude": 9.9400,
    "longitude": 8.9000,
    "routeDescription": "Located near stadium area of Plateau."
  },
  {
    "city": "Rivers",
    "name": "Rivers Central Shelter",
    "address": "Main Hall, Port Harcourt City Center",
    "latitude": 4.8156,
    "longitude": 7.0498,
    "routeDescription": "Accessible via main road of Rivers."
  },
  {
    "city": "Rivers",
    "name": "Rivers Stadium Shelter",
    "address": "Stadium Rd, Port Harcourt",
    "latitude": 4.8256,
    "longitude": 7.0598,
    "routeDescription": "Located near stadium area of Rivers."
  },
  {
    "city": "Sokoto",
    "name": "Sokoto Central Shelter",
    "address": "Main Hall, Sokoto City Center",
    "latitude": 13.0625,
    "longitude": 5.2425,
    "routeDescription": "Accessible via main road of Sokoto."
  },
  {
    "city": "Sokoto",
    "name": "Sokoto Stadium Shelter",
    "address": "Stadium Rd, Sokoto",
    "latitude": 13.0725,
    "longitude": 5.2525,
    "routeDescription": "Located near stadium area of Sokoto."
  },
  {
    "city": "Taraba",
    "name": "Taraba Central Shelter",
    "address": "Main Hall, Jalingo City Center",
    "latitude": 8.9000,
    "longitude": 11.1800,
    "routeDescription": "Accessible via main road of Taraba."
  },
  {
    "city": "Taraba",
    "name": "Taraba Stadium Shelter",
    "address": "Stadium Rd, Jalingo",
    "latitude": 8.9100,
    "longitude": 11.1900,
    "routeDescription": "Located near stadium area of Taraba."
  },
  {
    "city": "Yobe",
    "name": "Yobe Central Shelter",
    "address": "Main Hall, Damaturu City Center",
    "latitude": 12.1800,
    "longitude": 11.8600,
    "routeDescription": "Accessible via main road of Yobe."
  },
  {
    "city": "Yobe",
    "name": "Yobe Stadium Shelter",
    "address": "Stadium Rd, Damaturu",
    "latitude": 12.1900,
    "longitude": 11.8700,
    "routeDescription": "Located near stadium area of Yobe."
  },
  {
    "city": "Zamfara",
    "name": "Zamfara Central Shelter",
    "address": "Main Hall, Gusau City Center",
    "latitude": 12.1640,
    "longitude": 6.6710,
    "routeDescription": "Accessible via main road of Zamfara."
  },
  {
    "city": "Zamfara",
    "name": "Zamfara Stadium Shelter",
    "address": "Stadium Rd, Gusau",
    "latitude": 12.1740,
    "longitude": 6.6810,
    "routeDescription": "Located near stadium area of Zamfara."
  },
  {
    "city": "FCT Abuja",
    "name": "Abuja Central Shelter",
    "address": "Main Hall, Central Business District",
    "latitude": 9.0579,
    "longitude": 7.4951,
    "routeDescription": "Accessible via main road of Abuja."
  },
  {
    "city": "FCT Abuja",
    "name": "Abuja Stadium Shelter",
    "address": "National Stadium, Abuja",
    "latitude": 9.0679,
    "longitude": 7.5051,
    "routeDescription": "Located near stadium area of Abuja."
  }
]
